{"type":"FeatureCollection","features":[{"type":"Feature","geometry":{"type":"LineString","coordinates":[[-3.188396,55.944425],[-3.1882934,55.9441431],[-3.1881434,55.9438833],[-3.1880408,55.9436014],[-3.1882706,55.9434085],[-3.1885004,55.9432157],[-3.1887823,55.9431131],[-3.1890778,55.943061],[-3.1892706,55.9432908],[-3.1894634,55.9435206],[-3.1897589,55.9434685],[-3.1900589,55.9434685],[-3.1902517,55.9436983],[-3.1904017,55.9439582],[-3.1906315,55.9437653],[-3.1908613,55.9435725],[-3.1910912,55.9433796],[-3.1910912,55.9436796],[-3.1910912,55.9439796],[-3.1910912,55.9442796],[-3.1912412,55.9445395],[-3.1913912,55.9447993],[-3.1915412,55.9450591],[-3.1918412,55.9450591],[-3.1921366,55.9451112],[-3.1920845,55.9454066],[-3.1919819,55.9456885],[-3.1918793,55.9459704],[-3.1916195,55.9458204],[-3.1913597,55.9456704],[-3.1912571,55.9453885],[-3.1909973,55.9452385],[-3.1908044,55.9450087],[-3.1905746,55.9448159],[-3.1903448,55.944623],[-3.190152,55.9443932],[-3.1899222,55.9442004],[-3.1900248,55.9444823],[-3.1901748,55.9447421],[-3.1902774,55.945024],[-3.19038,55.9453059],[-3.1901871,55.9455357],[-3.1901871,55.9458357],[-3.1899573,55.9460286],[-3.1896619,55.9459765],[-3.189469,55.9457467],[-3.1891871,55.945644],[-3.1888917,55.9456961],[-3.1886989,55.945926],[-3.1883989,55.945926],[-3.1880989,55.945926],[-3.1877989,55.945926],[-3.1874989,55.945926],[-3.187269,55.9457331],[-3.1870392,55.9455403],[-3.1868464,55.9453105],[-3.1866536,55.9450807],[-3.1865036,55.9453405],[-3.1863536,55.9456003],[-3.1860581,55.9456524],[-3.1857627,55.9457045],[-3.1854808,55.9456019],[-3.1851989,55.9454992],[-3.1849169,55.9453966],[-3.1846215,55.9453445],[-3.1848813,55.9451945],[-3.1851411,55.9450445],[-3.1854009,55.9448945],[-3.1855509,55.9446347],[-3.1856535,55.9443528],[-3.185949,55.9443007],[-3.1860011,55.9440053],[-3.1857192,55.9439027],[-3.1854373,55.9438001],[-3.1851553,55.9436975],[-3.1850053,55.9434377],[-3.1848553,55.9431779],[-3.1851373,55.9430753],[-3.1854192,55.9429726],[-3.1857011,55.9430753],[-3.1859965,55.9430232],[-3.186292,55.9429711],[-3.1865739,55.9428685],[-3.1868558,55.9427659],[-3.1870486,55.9429957],[-3.1872414,55.9432255],[-3.1874343,55.9434553],[-3.1876271,55.9436851],[-3.1878569,55.9438779],[-3.1880498,55.9441078],[-3.1882796,55.9443006]]},"properties":{}},{"type":"Feature","geometry":{"type":"Point","coordinates":[-3.187982,55.943497]},"properties":{"location":"scare.cubs.resort","rgb-string":"#00ff00","marker-symbol":"lighthouse","marker-color":"#00ff00"}},{"type":"Feature","geometry":{"type":"Point","coordinates":[-3.188608,55.943119]},"properties":{"location":"groups.ideas.script","rgb-string":"#40ff00","marker-symbol":"lighthouse","marker-color":"#40ff00"}},{"type":"Feature","geometry":{"type":"Point","coordinates":[-3.189234,55.943012]},"properties":{"location":"region.passes.pencil","rgb-string":"000000","marker-symbol":"cross","marker-color":"000000"}},{"type":"Feature","geometry":{"type":"Point","coordinates":[-3.189523,55.943551]},"properties":{"location":"cars.attend.hotels","rgb-string":"#40ff00","marker-symbol":"lighthouse","marker-color":"#40ff00"}},{"type":"Feature","geometry":{"type":"Point","coordinates":[-3.190197,55.943443]},"properties":{"location":"arts.dish.scarcely","rgb-string":"#00ff00","marker-symbol":"lighthouse","marker-color":"#00ff00"}},{"type":"Feature","geometry":{"type":"Point","coordinates":[-3.190438,55.943982]},"properties":{"location":"pump.wheels.hulk","rgb-string":"#00ff00","marker-symbol":"lighthouse","marker-color":"#00ff00"}},{"type":"Feature","geometry":{"type":"Point","coordinates":[-3.191161,55.943362]},"properties":{"location":"meal.feed.large","rgb-string":"#00ff00","marker-symbol":"lighthouse","marker-color":"#00ff00"}},{"type":"Feature","geometry":{"type":"Point","coordinates":[-3.191065,55.94444]},"properties":{"location":"paying.crowd.weep","rgb-string":"#40ff00","marker-symbol":"lighthouse","marker-color":"#40ff00"}},{"type":"Feature","geometry":{"type":"Point","coordinates":[-3.191594,55.945195]},"properties":{"location":"hills.feels.tunes","rgb-string":"#ffc000","marker-symbol":"danger","marker-color":"#ffc000"}},{"type":"Feature","geometry":{"type":"Point","coordinates":[-3.192221,55.945114]},"properties":{"location":"useful.hike.trades","rgb-string":"#c0ff00","marker-symbol":"lighthouse","marker-color":"#c0ff00"}},{"type":"Feature","geometry":{"type":"Point","coordinates":[-3.191883,55.946003]},"properties":{"location":"stone.undulation.poems","rgb-string":"000000","marker-symbol":"cross","marker-color":"000000"}},{"type":"Feature","geometry":{"type":"Point","coordinates":[-3.191257,55.945599]},"properties":{"location":"skins.engage.best","rgb-string":"#ff4000","marker-symbol":"danger","marker-color":"#ff4000"}},{"type":"Feature","geometry":{"type":"Point","coordinates":[-3.191016,55.945248]},"properties":{"location":"maple.limit.hotels","rgb-string":"#ff4000","marker-symbol":"danger","marker-color":"#ff4000"}},{"type":"Feature","geometry":{"type":"Point","coordinates":[-3.189812,55.94409]},"properties":{"location":"cliff.asleep.wedge","rgb-string":"#40ff00","marker-symbol":"lighthouse","marker-color":"#40ff00"}},{"type":"Feature","geometry":{"type":"Point","coordinates":[-3.190438,55.945383]},"properties":{"location":"jump.crop.fits","rgb-string":"000000","marker-symbol":"cross","marker-color":"000000"}},{"type":"Feature","geometry":{"type":"Point","coordinates":[-3.189957,55.94603]},"properties":{"location":"love.behind.orchestra","rgb-string":"#ff4000","marker-symbol":"danger","marker-color":"#ff4000"}},{"type":"Feature","geometry":{"type":"Point","coordinates":[-3.188897,55.945707]},"properties":{"location":"stops.else.chats","rgb-string":"#ff8000","marker-symbol":"danger","marker-color":"#ff8000"}},{"type":"Feature","geometry":{"type":"Point","coordinates":[-3.18856,55.946057]},"properties":{"location":"boost.radar.stress","rgb-string":"#ffc000","marker-symbol":"danger","marker-color":"#ffc000"}},{"type":"Feature","geometry":{"type":"Point","coordinates":[-3.187404,55.945949]},"properties":{"location":"slips.mass.baking","rgb-string":"#ff4000","marker-symbol":"danger","marker-color":"#ff4000"}},{"type":"Feature","geometry":{"type":"Point","coordinates":[-3.186537,55.944925]},"properties":{"location":"laws.merit.bleak","rgb-string":"#ffc000","marker-symbol":"danger","marker-color":"#ffc000"}},{"type":"Feature","geometry":{"type":"Point","coordinates":[-3.186296,55.945761]},"properties":{"location":"posts.kicked.universally","rgb-string":"#c0ff00","marker-symbol":"lighthouse","marker-color":"#c0ff00"}},{"type":"Feature","geometry":{"type":"Point","coordinates":[-3.185621,55.945761]},"properties":{"location":"shed.desire.muddy","rgb-string":"#ff8000","marker-symbol":"danger","marker-color":"#ff8000"}},{"type":"Feature","geometry":{"type":"Point","coordinates":[-3.184513,55.945302]},"properties":{"location":"settle.title.united","rgb-string":"#ffc000","marker-symbol":"danger","marker-color":"#ffc000"}},{"type":"Feature","geometry":{"type":"Point","coordinates":[-3.18567,55.944359]},"properties":{"location":"atoms.vanish.foods","rgb-string":"#ff8000","marker-symbol":"danger","marker-color":"#ff8000"}},{"type":"Feature","geometry":{"type":"Point","coordinates":[-3.186103,55.944251]},"properties":{"location":"organs.shape.fantastic","rgb-string":"#c0ff00","marker-symbol":"lighthouse","marker-color":"#c0ff00"}},{"type":"Feature","geometry":{"type":"Point","coordinates":[-3.186007,55.943901]},"properties":{"location":"teams.mild.played","rgb-string":"#ffc000","marker-symbol":"danger","marker-color":"#ffc000"}},{"type":"Feature","geometry":{"type":"Point","coordinates":[-3.18514,55.943685]},"properties":{"location":"hello.love.keys","rgb-string":"000000","marker-symbol":"cross","marker-color":"000000"}},{"type":"Feature","geometry":{"type":"Point","coordinates":[-3.184754,55.943012]},"properties":{"location":"courier.assume.bill","rgb-string":"#ff8000","marker-symbol":"danger","marker-color":"#ff8000"}},{"type":"Feature","geometry":{"type":"Point","coordinates":[-3.185573,55.942877]},"properties":{"location":"dent.shins.cycle","rgb-string":"#ff4000","marker-symbol":"danger","marker-color":"#ff4000"}},{"type":"Feature","geometry":{"type":"Point","coordinates":[-3.185621,55.943065]},"properties":{"location":"toned.deflection.bland","rgb-string":"#f0ff00","marker-symbol":"danger","marker-color":"#f0ff00"}},{"type":"Feature","geometry":{"type":"Point","coordinates":[-3.186344,55.942958]},"properties":{"location":"hers.banks.goat","rgb-string":"#ff4000","marker-symbol":"danger","marker-color":"#ff4000"}},{"type":"Feature","geometry":{"type":"Point","coordinates":[-3.18697,55.942688]},"properties":{"location":"strut.river.surely","rgb-string":"#c0ff00","marker-symbol":"lighthouse","marker-color":"#c0ff00"}},{"type":"Feature","geometry":{"type":"Point","coordinates":[-3.187018,55.942877]},"properties":{"location":"valve.elaborate.fortunate","rgb-string":"000000","marker-symbol":"cross","marker-color":"000000"}}]}