{"type":"FeatureCollection","features":[{"type":"Feature","geometry":{"type":"LineString","coordinates":[[-3.188396,55.944425],[-3.1882934,55.9441431],[-3.1879934,55.9441431],[-3.187698,55.944091],[-3.1875051,55.9438612],[-3.1876551,55.9436014],[-3.1878051,55.9433416],[-3.1875232,55.943239],[-3.1872413,55.9431364],[-3.1869594,55.9430338],[-3.1866775,55.9429311],[-3.1863956,55.9428285],[-3.1861137,55.9429311],[-3.1858539,55.9427811],[-3.185572,55.9428838],[-3.185422,55.9431436],[-3.185272,55.9434034],[-3.185122,55.9436632],[-3.185174,55.9439586],[-3.1852261,55.9442541],[-3.1852261,55.9445541],[-3.1849963,55.9447469],[-3.1847665,55.9449397],[-3.1844665,55.9449397],[-3.1847263,55.9450897],[-3.1849561,55.9452826],[-3.185238,55.9453852],[-3.1853407,55.9456671],[-3.1856226,55.9457697],[-3.1859226,55.9457697],[-3.1862226,55.9457697],[-3.1862226,55.9454697],[-3.1861705,55.9451742],[-3.1861184,55.9448788],[-3.1861184,55.9445788],[-3.1861184,55.9442788],[-3.1861705,55.9445742],[-3.1864659,55.9446263],[-3.1867613,55.9445742],[-3.1870568,55.9446263],[-3.1873166,55.9444763],[-3.1870868,55.9446692],[-3.1867868,55.9446692],[-3.186557,55.944862],[-3.186707,55.9451218],[-3.1868998,55.9453516],[-3.1870926,55.9455814],[-3.1872855,55.9458113],[-3.1875809,55.9458634],[-3.1878764,55.9459154],[-3.1881718,55.9459675],[-3.1884672,55.9460196],[-3.1886172,55.9457598],[-3.1887672,55.9455],[-3.1890271,55.94565],[-3.1893271,55.94565],[-3.1893792,55.9459455],[-3.189609,55.9457526],[-3.1898018,55.9455228],[-3.1900972,55.9454707],[-3.1903792,55.9453681],[-3.1906746,55.945316],[-3.19097,55.9452639],[-3.1912655,55.9452118],[-3.1915655,55.9452118],[-3.1918609,55.9451597],[-3.1921564,55.9451076],[-3.1918745,55.945005],[-3.1915925,55.9449024],[-3.1913627,55.9447096],[-3.1910627,55.9447096],[-3.1910627,55.9444096],[-3.1912556,55.9441798],[-3.1911056,55.94392],[-3.191003,55.9436381],[-3.190853,55.9433783],[-3.1907504,55.9430963],[-3.1906004,55.9428365],[-3.1903406,55.9429865],[-3.1900807,55.9431365],[-3.1899781,55.9428546],[-3.1897483,55.9426618],[-3.1896962,55.9429572],[-3.1895034,55.9431871],[-3.1892034,55.9431871],[-3.1889034,55.9431871],[-3.188608,55.943135],[-3.188758,55.9433948],[-3.188758,55.9436948],[-3.1889508,55.9439246],[-3.1891008,55.9441844],[-3.1888189,55.944287],[-3.188537,55.9443896]]},"properties":{}},{"type":"Feature","geometry":{"type":"Point","coordinates":[-3.188271,55.944063]},"properties":{"location":"rush.crown.link","rgb-string":"#40ff00","marker-symbol":"lighthouse","marker-color":"#40ff00"}},{"type":"Feature","geometry":{"type":"Point","coordinates":[-3.1875,55.943874]},"properties":{"location":"begins.spider.drips","rgb-string":"#c0ff00","marker-symbol":"lighthouse","marker-color":"#c0ff00"}},{"type":"Feature","geometry":{"type":"Point","coordinates":[-3.187837,55.943227]},"properties":{"location":"gums.clock.modes","rgb-string":"#80ff00","marker-symbol":"lighthouse","marker-color":"#80ff00"}},{"type":"Feature","geometry":{"type":"Point","coordinates":[-3.186248,55.942796]},"properties":{"location":"under.retire.bump","rgb-string":"#ff4000","marker-symbol":"danger","marker-color":"#ff4000"}},{"type":"Feature","geometry":{"type":"Point","coordinates":[-3.185573,55.942877]},"properties":{"location":"dent.shins.cycle","rgb-string":"#ffc000","marker-symbol":"danger","marker-color":"#ffc000"}},{"type":"Feature","geometry":{"type":"Point","coordinates":[-3.18514,55.943685]},"properties":{"location":"hello.love.keys","rgb-string":"#f0ff00","marker-symbol":"danger","marker-color":"#f0ff00"}},{"type":"Feature","geometry":{"type":"Point","coordinates":[-3.185236,55.944575]},"properties":{"location":"acid.chair.butter","rgb-string":"#ff4000","marker-symbol":"danger","marker-color":"#ff4000"}},{"type":"Feature","geometry":{"type":"Point","coordinates":[-3.184465,55.944952]},"properties":{"location":"sports.topic.clocks","rgb-string":"#ff8000","marker-symbol":"danger","marker-color":"#ff8000"}},{"type":"Feature","geometry":{"type":"Point","coordinates":[-3.185621,55.945761]},"properties":{"location":"shed.desire.muddy","rgb-string":"#f0ff00","marker-symbol":"danger","marker-color":"#f0ff00"}},{"type":"Feature","geometry":{"type":"Point","coordinates":[-3.186296,55.945761]},"properties":{"location":"posts.kicked.universally","rgb-string":"#ff8000","marker-symbol":"danger","marker-color":"#ff8000"}},{"type":"Feature","geometry":{"type":"Point","coordinates":[-3.186103,55.944251]},"properties":{"location":"organs.shape.fantastic","rgb-string":"#c0ff00","marker-symbol":"lighthouse","marker-color":"#c0ff00"}},{"type":"Feature","geometry":{"type":"Point","coordinates":[-3.186777,55.944575]},"properties":{"location":"artist.gets.react","rgb-string":"000000","marker-symbol":"cross","marker-color":"000000"}},{"type":"Feature","geometry":{"type":"Point","coordinates":[-3.187307,55.944494]},"properties":{"location":"only.fairly.rift","rgb-string":"#c0ff00","marker-symbol":"lighthouse","marker-color":"#c0ff00"}},{"type":"Feature","geometry":{"type":"Point","coordinates":[-3.186729,55.945168]},"properties":{"location":"dragon.bottle.crisp","rgb-string":"#ffc000","marker-symbol":"danger","marker-color":"#ffc000"}},{"type":"Feature","geometry":{"type":"Point","coordinates":[-3.187404,55.945949]},"properties":{"location":"slips.mass.baking","rgb-string":"#ffc000","marker-symbol":"danger","marker-color":"#ffc000"}},{"type":"Feature","geometry":{"type":"Point","coordinates":[-3.18856,55.946057]},"properties":{"location":"boost.radar.stress","rgb-string":"000000","marker-symbol":"cross","marker-color":"000000"}},{"type":"Feature","geometry":{"type":"Point","coordinates":[-3.188801,55.945437]},"properties":{"location":"shady.soft.phones","rgb-string":"#c0ff00","marker-symbol":"lighthouse","marker-color":"#c0ff00"}},{"type":"Feature","geometry":{"type":"Point","coordinates":[-3.18933,55.945653]},"properties":{"location":"museum.spicy.horns","rgb-string":"#f0ff00","marker-symbol":"danger","marker-color":"#f0ff00"}},{"type":"Feature","geometry":{"type":"Point","coordinates":[-3.189379,55.945949]},"properties":{"location":"coherent.saints.stuck","rgb-string":"#ff4000","marker-symbol":"danger","marker-color":"#ff4000"}},{"type":"Feature","geometry":{"type":"Point","coordinates":[-3.18986,55.945491]},"properties":{"location":"turkey.limit.ramp","rgb-string":"#ff8000","marker-symbol":"danger","marker-color":"#ff8000"}},{"type":"Feature","geometry":{"type":"Point","coordinates":[-3.191016,55.945248]},"properties":{"location":"maple.limit.hotels","rgb-string":"#ff4000","marker-symbol":"danger","marker-color":"#ff4000"}},{"type":"Feature","geometry":{"type":"Point","coordinates":[-3.192221,55.945114]},"properties":{"location":"useful.hike.trades","rgb-string":"#f0ff00","marker-symbol":"danger","marker-color":"#f0ff00"}},{"type":"Feature","geometry":{"type":"Point","coordinates":[-3.191065,55.944709]},"properties":{"location":"estate.gave.votes","rgb-string":"#40ff00","marker-symbol":"lighthouse","marker-color":"#40ff00"}},{"type":"Feature","geometry":{"type":"Point","coordinates":[-3.191065,55.94444]},"properties":{"location":"paying.crowd.weep","rgb-string":"#40ff00","marker-symbol":"lighthouse","marker-color":"#40ff00"}},{"type":"Feature","geometry":{"type":"Point","coordinates":[-3.191113,55.943901]},"properties":{"location":"spicy.bunch.shady","rgb-string":"000000","marker-symbol":"cross","marker-color":"000000"}},{"type":"Feature","geometry":{"type":"Point","coordinates":[-3.190727,55.943092]},"properties":{"location":"relate.chill.vest","rgb-string":"#40ff00","marker-symbol":"lighthouse","marker-color":"#40ff00"}},{"type":"Feature","geometry":{"type":"Point","coordinates":[-3.190583,55.942823]},"properties":{"location":"tonic.bliss.cove","rgb-string":"#40ff00","marker-symbol":"lighthouse","marker-color":"#40ff00"}},{"type":"Feature","geometry":{"type":"Point","coordinates":[-3.190053,55.943173]},"properties":{"location":"shows.fries.lamp","rgb-string":"#40ff00","marker-symbol":"lighthouse","marker-color":"#40ff00"}},{"type":"Feature","geometry":{"type":"Point","coordinates":[-3.189764,55.942661]},"properties":{"location":"hooked.shine.third","rgb-string":"#40ff00","marker-symbol":"lighthouse","marker-color":"#40ff00"}},{"type":"Feature","geometry":{"type":"Point","coordinates":[-3.189379,55.943281]},"properties":{"location":"rents.cone.stove","rgb-string":"#40ff00","marker-symbol":"lighthouse","marker-color":"#40ff00"}},{"type":"Feature","geometry":{"type":"Point","coordinates":[-3.188608,55.943119]},"properties":{"location":"groups.ideas.script","rgb-string":"#40ff00","marker-symbol":"lighthouse","marker-color":"#40ff00"}},{"type":"Feature","geometry":{"type":"Point","coordinates":[-3.188945,55.943928]},"properties":{"location":"noted.friday.jams","rgb-string":"#00ff00","marker-symbol":"lighthouse","marker-color":"#00ff00"}},{"type":"Feature","geometry":{"type":"Point","coordinates":[-3.189138,55.944197]},"properties":{"location":"spoon.invest.every","rgb-string":"#40ff00","marker-symbol":"lighthouse","marker-color":"#40ff00"}}]}